,City,Cloudiness,Country,Date,Humidity,Lat,Lng,Max Temp,Wind Speed
0,Lamar,90,US,1584760492,81,33.67,-95.58,45.0,12.75
1,Codrington,100,AU,1584760492,71,-38.27,141.97,57.65,8.95
2,Lerwick,0,GB,1584760492,55,60.15,-1.15,39.2,6.93
3,Hilo,90,US,1584760460,78,19.73,-155.09,73.99,6.8
4,Mehamn,99,NO,1584760238,83,71.04,27.85,22.37,19.62
5,Zelenogradsk,40,RU,1584760492,69,54.96,20.48,35.6,22.37
6,Butaritari,3,KI,1584760492,78,3.07,172.79,83.39,15.88
7,Adamantas,0,GR,1584760493,71,36.73,24.43,55.4,12.75
8,Anshun,73,CN,1584760493,69,26.25,105.93,67.91,15.17
9,Busselton,64,AU,1584760493,40,-33.65,115.33,75.0,14.88
10,Ushuaia,40,AR,1584760493,80,-54.8,-68.3,39.2,35.57
11,Jishou,97,CN,1584760493,78,28.32,109.72,70.61,3.22
12,Takoradze,82,GH,1584760493,89,4.88,-1.76,78.53,3.47
13,Atuona,35,PF,1584760218,81,-9.8,-139.03,81.95,14.61
14,Upernavik,100,GL,1584760493,90,72.79,-56.15,-5.35,0.85
15,Narsaq,53,GL,1584760493,33,60.92,-46.05,14.0,16.11
16,Provideniya,100,RU,1584760493,93,64.38,-173.3,22.73,8.41
17,Bluff,100,NZ,1584760493,92,-46.6,168.33,51.01,5.01
18,Guaíra,100,BR,1584760493,92,-20.32,-48.31,73.31,1.16
19,Tyristrand,0,NO,1584760493,58,60.08,10.1,32.0,2.24
20,Bilibino,0,RU,1584760493,72,68.05,166.44,-5.89,1.61
21,Port Keats,6,AU,1584760493,40,-14.25,129.55,94.91,9.15
22,Norman Wells,75,CA,1584760494,51,65.28,-126.83,39.2,16.11
23,Raudeberg,70,NO,1584760494,80,61.99,5.14,32.0,5.82
24,Ust-Maya,0,RU,1584760494,80,60.42,134.53,19.67,3.09
25,Avarua,100,CK,1584760220,88,-21.21,-159.78,78.8,10.29
26,Port Augusta,53,AU,1584760494,64,-32.5,137.77,81.0,11.41
27,Cape Town,20,ZA,1584760437,88,-33.93,18.42,63.0,6.93
28,Jamestown,90,US,1584760394,83,42.1,-79.24,32.0,11.41
29,Barrow,90,US,1584760494,78,71.29,-156.79,8.6,25.28
30,Airai,100,TL,1584760494,83,-8.93,125.41,75.83,4.52
31,Panabá,0,MX,1584760494,65,21.28,-88.27,77.99,12.12
32,Tasiilaq,78,GL,1584760494,85,65.61,-37.64,23.0,20.8
33,Ulaangom,100,MN,1584760494,91,49.98,92.07,18.41,1.77
34,Fallon,75,US,1584760494,39,39.47,-118.78,48.2,4.7
35,Pyu,0,MM,1584760494,46,18.48,96.43,85.73,10.96
36,Mataura,100,NZ,1584760494,92,-46.19,168.86,51.01,5.01
37,Rikitea,65,PF,1584760494,82,-23.12,-134.97,79.07,13.18
38,Khatanga,80,RU,1584760494,91,71.97,102.5,-12.55,15.61
39,Dobârlău,100,RO,1584760495,72,45.73,25.88,51.01,4.0
40,Hobart,75,AU,1584760495,72,-42.88,147.33,66.0,11.41
41,Grand Gaube,75,MU,1584760495,83,-20.01,57.66,73.99,3.36
42,Cherskiy,0,RU,1584760495,80,68.75,161.3,-2.29,12.21
43,Bethel,90,US,1584760495,63,41.37,-73.41,69.8,8.05
44,Pevek,0,RU,1584760496,85,69.7,170.31,-8.77,9.82
45,Tura,0,IN,1584760496,27,25.52,90.22,83.93,2.48
46,Tuni,0,IN,1584760496,60,17.35,82.55,79.97,3.87
47,Half Moon Bay,40,US,1584760496,54,37.46,-122.43,57.99,3.36
48,Yellowknife,75,CA,1584760353,62,62.46,-114.35,24.01,10.29
49,Tiksi,54,RU,1584760496,83,71.69,128.87,-10.21,15.05
50,North Bend,1,US,1584760342,87,43.41,-124.22,51.01,13.87
51,Klaksvík,100,FO,1584760496,80,62.23,-6.59,41.0,20.8
52,Santa Maria,0,BR,1584760419,85,-29.68,-53.81,59.63,2.46
53,Kimbe,81,PG,1584760496,63,-5.55,150.14,87.35,6.15
54,Departamento de Maldonado,20,UY,1584760496,93,-34.67,-54.92,64.4,1.12
55,Esperance,90,AU,1584760496,64,-33.87,121.9,73.4,4.7
56,Port Elizabeth,54,ZA,1584760496,87,-33.92,25.57,60.8,5.82
57,Megion,90,RU,1584760496,96,61.03,76.11,32.0,4.47
58,Vaini,75,TO,1584760497,78,-21.2,-175.2,78.8,11.41
59,Arkadak,16,RU,1584760497,88,51.93,43.5,31.91,6.96
60,Blackwater,0,AU,1584760229,39,-23.58,148.88,85.19,10.51
61,Severo-Kuril'sk,100,RU,1584760497,98,50.68,156.12,31.01,21.43
62,Sovetskiy,77,RU,1584760497,72,61.36,63.58,18.41,4.23
63,Dikson,87,RU,1584760497,96,73.51,80.55,-12.19,13.62
64,Chui,0,UY,1584760497,84,-33.7,-53.46,63.77,5.73
65,Punta Arenas,75,CL,1584760497,56,-53.15,-70.92,42.8,8.05
66,Puerto del Rosario,20,ES,1584760497,67,28.5,-13.86,62.6,11.41
67,Hithadhoo,100,MV,1584760497,65,-0.6,73.08,84.11,2.84
68,Samoded,18,RU,1584760497,87,63.61,40.51,14.09,6.58
69,Qandala,0,SO,1584760497,73,11.47,49.87,79.61,4.29
70,Olafsvik,100,IS,1584760497,90,64.89,-23.71,31.37,9.53
71,Kupang,75,ID,1584760497,74,-10.17,123.58,84.2,16.11
72,Jambi City,72,ID,1584760497,70,-1.6,103.62,86.81,1.45
73,Bambous Virieux,75,MU,1584760497,83,-20.34,57.76,73.99,3.36
74,Morehead,90,US,1584760497,75,37.27,-87.18,46.4,6.93
75,Dolores,1,AR,1584760497,90,-36.31,-57.68,57.47,5.28
76,Ucluelet,0,CA,1584760317,86,48.93,-125.55,52.0,1.01
77,Bredasdorp,32,ZA,1584760497,82,-34.53,20.04,62.6,2.24
78,Barra do Garças,100,BR,1584760242,95,-15.89,-52.26,72.41,1.03
79,Ilulissat,100,GL,1584760497,85,69.22,-51.1,15.8,2.24
80,Athabasca,32,CA,1584760497,93,54.72,-113.29,10.31,6.31
81,São José da Coroa Grande,91,BR,1584760497,77,-8.9,-35.15,82.49,13.85
82,Tsnori,90,GE,1584760497,87,41.62,45.97,46.4,6.93
83,Sayansk,100,RU,1584760498,80,54.11,102.16,33.17,6.35
84,Salalah,75,OM,1584760498,83,17.02,54.09,78.8,8.05
85,Lebu,52,CL,1584760498,99,-37.62,-73.65,50.09,2.01
86,Dom Pedro,100,BR,1584760498,99,-4.48,-44.45,73.31,1.99
87,Bonavista,100,CA,1584760498,85,48.65,-53.11,34.0,8.01
88,San Juan,0,AR,1584760498,39,-31.54,-68.54,77.63,12.33
89,New Norfolk,75,AU,1584760498,72,-42.78,147.06,66.0,11.41
90,Biak,63,ID,1584760498,73,-0.91,122.88,82.31,4.14
91,Puerto Ayora,3,EC,1584760498,83,-0.74,-90.35,79.0,4.0
92,Mar del Plata,0,AR,1584760401,93,-38.0,-57.56,64.99,6.87
93,Alice Springs,0,AU,1584760311,17,-23.7,133.88,93.2,12.75
94,Nikolskoye,62,RU,1584760226,58,59.7,30.79,26.6,6.71
95,Kahului,40,US,1584760499,65,20.89,-156.47,80.6,8.05
96,Nanortalik,53,GL,1584760499,65,60.14,-45.24,21.65,13.91
97,Belyy Yar,88,RU,1584760499,41,53.6,91.39,39.2,4.47
98,Nagato,20,JP,1584760499,58,34.38,131.2,66.2,10.29
99,Port Alfred,10,ZA,1584760221,85,-33.59,26.89,64.0,1.99
100,Te Anau,100,NZ,1584760242,92,-45.42,167.72,48.47,1.03
101,Taupo,99,NZ,1584760499,59,-38.68,176.08,69.01,5.01
102,Bendigo,98,AU,1584760499,41,-36.77,144.28,71.01,1.01
103,Asău,80,RO,1584760499,81,46.43,26.4,50.0,6.93
104,Lengshuitan,53,CN,1584760499,62,26.41,111.6,81.05,21.18
105,Carnarvon,70,AU,1584760499,38,-24.87,113.63,89.6,14.99
106,Quelimane,97,MZ,1584760499,78,-17.88,36.89,73.13,3.6
107,Bela,67,IN,1584760499,32,25.93,81.98,78.53,3.49
108,Pokhara,2,NP,1584760200,45,28.23,83.98,68.09,1.86
109,Constitución,0,CL,1584760500,91,-35.33,-72.42,51.53,5.93
110,Sabang,10,ID,1584760500,66,5.89,95.32,83.57,11.63
111,Caravelas,95,BR,1584760500,85,-17.71,-39.25,82.13,17.67
112,São João da Barra,100,BR,1584760500,86,-21.64,-41.05,77.81,7.36
113,Faya,75,SA,1584760500,93,18.39,42.45,59.0,16.11
114,Naze,0,JP,1584760242,56,28.37,129.48,69.8,6.93
115,Maceió,100,BR,1584760500,88,-9.67,-35.74,78.8,9.17
116,Dingle,67,PH,1584760224,62,11.0,122.67,86.45,10.36
117,Katsuura,0,JP,1584760500,42,35.13,140.3,66.99,20.8
118,Mahébourg,75,MU,1584760500,83,-20.41,57.7,73.99,3.36
119,Longyearbyen,40,SJ,1584760500,84,78.22,15.64,8.6,6.93
120,San Ignacio,0,BZ,1584760467,73,17.16,-89.07,77.0,6.93
121,Albany,75,US,1584760500,61,42.6,-73.97,51.01,11.41
122,Progreso,5,MX,1584760500,45,21.28,-89.67,86.0,23.04
123,Saint-Philippe,99,RE,1584760500,60,-21.36,55.77,71.6,8.05
124,Guerrero Negro,97,MX,1584760500,68,27.98,-114.06,59.81,12.48
125,Rabo de Peixe,75,PT,1584760500,67,37.8,-25.58,59.0,5.82
126,Basco,64,PH,1584760500,81,20.45,121.97,77.63,8.14
127,Megalopolis,0,GR,1584760500,80,37.4,22.14,54.0,3.91
128,Yerofey Pavlovich,98,RU,1584760501,59,53.97,121.97,27.41,1.61
129,Lorengau,42,PG,1584760501,68,-2.02,147.27,83.93,4.16
130,Gopālganj,14,IN,1584760501,36,26.47,84.43,77.27,5.26
131,Geraldton,0,AU,1584760501,65,-28.77,114.6,80.01,12.75
132,Qaanaaq,0,GL,1584760501,51,77.48,-69.36,-8.59,7.34
133,Kumul,100,CN,1584760501,35,42.8,93.45,56.57,1.95
134,Laguna,1,US,1584760353,71,38.42,-121.42,62.01,6.93
135,Lima,75,PE,1584760293,83,-12.04,-77.03,73.4,10.29
136,La Sarre,100,CA,1584760501,92,48.8,-79.2,-2.47,9.66
137,Fortuna,1,US,1584760502,81,40.6,-124.16,53.6,2.71
138,Ponta do Sol,40,PT,1584760502,54,32.67,-17.1,59.0,14.99
139,Kapaa,75,US,1584760249,74,22.08,-159.32,80.6,12.75
140,Haines Junction,49,CA,1584760502,92,60.75,-137.51,19.13,1.32
141,Nyurba,100,RU,1584760502,91,63.28,118.33,21.11,9.66
142,Arai,27,JP,1584760502,41,37.02,138.25,57.99,1.99
143,Sitka,75,US,1584760502,80,57.05,-135.33,42.8,11.41
144,Marsh Harbour,0,BS,1584760226,78,26.54,-77.06,72.95,13.33
145,Acajutla,0,SV,1584760502,85,13.59,-89.83,75.0,13.27
146,Rørvik,100,NO,1584760502,69,64.86,11.24,37.31,18.59
147,Artemisa Province,20,CU,1584760503,78,22.81,-82.76,73.4,6.93
148,Helong,26,CN,1584760503,72,42.54,129.0,36.23,11.18
149,Pāsighāt,0,IN,1584760391,42,28.07,95.33,75.65,0.38
150,Karhal,96,IN,1584760503,31,27.0,78.94,77.09,5.14
151,Vila,40,PT,1584760503,100,42.03,-8.16,55.99,1.12
152,Bandarbeyla,9,SO,1584760503,83,9.49,50.81,81.59,7.0
153,Eyl,3,SO,1584760503,80,7.98,49.82,82.13,6.42
154,Semnan,26,IR,1584760503,36,35.57,53.4,51.53,4.38
155,Corn Island,0,NI,1584760503,79,12.17,-83.04,79.79,16.87
156,Saskylakh,100,RU,1584760236,89,71.92,114.08,-4.27,17.2
157,Thompson,5,CA,1584760503,46,55.74,-97.86,6.8,4.83
158,Port Hardy,20,CA,1584760503,40,50.7,-127.42,51.8,8.05
159,Faanui,92,PF,1584760503,68,-16.48,-151.75,84.47,9.24
160,Behbahān,66,IR,1584760503,71,30.6,50.24,66.2,2.33
161,Zarubino,0,RU,1584760503,59,42.63,131.09,41.99,17.31
162,Torbay,90,CA,1584760235,97,47.67,-52.73,37.99,39.15
163,Cuamba,100,MZ,1584760503,96,-14.8,36.54,65.39,2.55
164,Creel,100,MX,1584760503,42,27.75,-107.63,47.03,1.61
165,Cheney,1,US,1584760296,52,47.49,-117.58,53.6,3.36
166,Tyrma,96,RU,1584760503,63,50.08,132.17,32.81,4.18
167,Tuktoyaktuk,90,CA,1584760504,92,69.45,-133.04,28.4,12.75
168,Pervomayskiy,0,RU,1584760504,84,53.25,40.29,31.73,6.38
169,Tawao,20,MY,1584760504,66,4.25,117.89,87.8,3.36
170,Caconda,79,AO,1584760504,82,-13.73,15.07,55.85,1.54
171,Hermanus,0,ZA,1584760504,92,-34.42,19.23,61.0,0.45
172,Hualmay,98,PE,1584760243,81,-11.1,-77.61,70.25,3.09
173,Kurchum,0,KZ,1584760504,72,48.57,83.65,23.27,3.13
174,Meulaboh,69,ID,1584760504,74,4.14,96.13,81.77,5.73
175,Touros,82,BR,1584760236,88,-5.2,-35.46,77.0,2.24
176,Taoudenni,0,ML,1584760249,27,22.68,-3.98,66.29,7.96
177,Mae Sai,0,TH,1584760504,57,20.43,99.88,82.0,2.24
178,Portland,1,US,1584760159,41,45.52,-122.68,62.6,9.17
179,Orlik,93,RU,1584760504,69,52.52,99.83,20.03,6.38
180,Vanimo,100,PG,1584760504,71,-2.67,141.3,82.31,4.25
181,Sol'-Iletsk,92,RU,1584760504,91,51.16,54.99,29.21,13.33
182,Inuvik,90,CA,1584760225,92,68.35,-133.72,30.2,10.29
183,Mount Gambier,75,AU,1584760504,59,-37.83,140.77,64.4,4.7
184,Santa Rosa,20,PH,1584760411,52,14.31,121.11,91.0,6.93
185,Russell,40,US,1584760505,64,32.35,-85.2,75.2,9.17
186,Imbituba,40,BR,1584760505,69,-28.24,-48.67,73.4,5.82
187,Tual,100,ID,1584760505,77,-5.67,132.75,82.13,12.03
188,Lavrentiya,0,RU,1584760506,87,65.58,-171.0,26.15,11.74
189,Dawei,0,MM,1584760506,69,14.08,98.2,79.61,3.06
190,Nāyudupet,20,IN,1584760506,69,13.9,79.9,82.4,9.17
191,Ancud,90,CL,1584760506,93,-41.87,-73.82,57.2,8.05
192,Fairbanks,90,US,1584760506,64,64.84,-147.72,37.4,14.99
193,Gmina Końskie,100,PL,1584760506,1,51.19,20.41,41.0,9.66
194,Krāslava,100,LV,1584760506,92,55.9,27.17,28.31,9.66
195,Hambantota,75,LK,1584760506,94,6.12,81.12,78.8,3.36
196,Anadyr,0,RU,1584760506,78,64.75,177.48,8.6,2.24
197,Arraial do Cabo,100,BR,1584760506,82,-22.97,-42.03,79.07,5.7
198,Ati,100,TD,1584760506,11,13.22,18.34,76.19,10.87
199,Harper,100,LR,1584760506,90,4.38,-7.72,77.45,2.48
200,Aykhal,0,RU,1584760506,64,66.0,111.5,-2.2,2.24
201,Qui Nhon,72,VN,1584760506,56,13.77,109.23,84.29,5.12
202,Buala,73,SB,1584760506,67,-8.14,159.59,86.27,7.9
203,Yangi Marg`ilon,100,UZ,1584760506,55,40.43,71.72,60.8,23.04
204,George Town,20,MY,1584760330,66,5.41,100.34,86.0,8.05
205,Padang,94,ID,1584760507,68,-0.95,100.35,79.43,2.62
206,Sinnamary,8,GF,1584760507,79,5.38,-52.95,79.43,15.7
207,Talnakh,100,RU,1584760507,70,69.49,88.4,1.4,22.37
208,Prince Rupert,20,CA,1584760507,75,54.32,-130.32,42.8,8.05
209,Hamilton,90,US,1584760222,70,39.18,-84.53,44.01,12.75
210,Zhigansk,100,RU,1584760507,91,66.77,123.37,-2.83,7.23
211,Bitung,40,ID,1584760507,70,1.45,125.18,86.0,4.7
212,Mackay,3,AU,1584760507,65,-21.15,149.2,84.99,14.99
213,San Cristobal,75,VE,1584760507,69,7.77,-72.22,78.8,2.24
214,Mīzan Teferī,100,ET,1584760507,80,6.98,35.58,65.21,2.84
215,Pacific Grove,90,US,1584760507,62,36.62,-121.92,57.2,5.48
216,Muros,90,ES,1584760236,100,42.78,-9.06,55.99,1.45
217,Santa Fe,0,AR,1584760235,62,-31.63,-60.7,71.01,4.0
218,Herat Province,0,AF,1584760507,87,34.5,62.0,50.0,2.24
219,Chodavaram,75,IN,1584760507,69,17.83,82.95,80.6,6.93
220,Cascais,20,PT,1584760507,87,38.7,-9.42,51.01,2.24
221,Kruisfontein,0,ZA,1584760507,87,-34.0,24.73,57.65,3.96
222,Khvoynaya,0,RU,1584760507,72,58.9,34.53,22.37,6.96
223,Petropavlovsk-Kamchatskiy,90,RU,1584760238,100,53.05,158.65,35.6,26.84
224,Adrar,0,MR,1584760507,33,20.5,-10.07,63.05,8.5
225,Puerto Escondido,40,MX,1584760508,83,15.85,-97.07,82.4,3.36
226,Sillod,0,IN,1584760508,39,20.3,75.65,64.4,3.94
227,Los Llanos de Aridane,75,ES,1584760508,59,28.66,-17.92,64.4,12.75
228,Aripuanã,100,BR,1584760509,97,-9.17,-60.63,72.41,1.79
229,Harboøre,0,DK,1584760509,85,56.62,8.18,33.01,1.12
230,San Patricio,5,MX,1584760509,83,19.22,-104.7,78.8,9.17
231,Maraã,21,BR,1584760509,91,-1.83,-65.37,74.39,2.71
232,Skjervøy,100,NO,1584760235,64,70.03,20.97,29.39,26.93
233,Teknāf,100,BD,1584760509,37,20.86,92.31,89.15,1.14
234,Springville,75,US,1584760509,75,40.17,-111.61,43.0,10.29
235,Grand-Lahou,35,CI,1584760509,84,5.14,-5.02,82.67,10.09
236,Kloulklubed,75,PW,1584760509,83,7.04,134.26,82.4,8.05
237,Vestmannaeyjar,100,IS,1584760300,97,63.44,-20.27,36.41,21.32
238,Lagoa,95,PT,1584760247,82,39.05,-27.98,60.53,21.45
239,Cabo San Lucas,5,MX,1584760246,77,22.89,-109.91,69.01,3.36
240,Bairiki Village,16,KI,1584760251,80,1.33,172.98,83.03,14.61
241,Huarmey,100,PE,1584760509,75,-10.07,-78.15,71.51,3.22
242,Castro,46,BR,1584760237,93,-24.79,-50.01,63.77,8.39
243,Karakol,0,KG,1584760509,36,42.49,78.39,40.19,1.28
244,Hendaye,70,FR,1584760509,81,43.37,-1.77,59.0,1.12
245,Krasnyy Chikoy,99,RU,1584760510,81,50.36,108.75,23.45,3.31
246,Kralendijk,0,BQ,1584760254,78,12.15,-68.27,78.8,11.41
247,De Haan,20,BE,1584760510,86,51.27,3.04,42.01,13.87
248,Saldanha,0,ZA,1584760510,87,-33.01,17.94,60.8,3.36
249,Khāsh,60,IR,1584760510,38,28.22,61.22,60.89,7.29
250,Takapau,93,NZ,1584760510,55,-40.03,176.35,70.0,5.99
251,Srednekolymsk,78,RU,1584760510,83,67.45,153.68,5.27,10.16
252,Zaqatala,90,AZ,1584760510,87,41.63,46.64,46.4,6.93
253,Chokurdakh,48,RU,1584760510,92,70.63,147.92,-3.01,6.58
254,Amapá,100,BR,1584760510,90,1.0,-52.0,71.51,1.99
255,Pisco,90,PE,1584760510,83,-13.7,-76.22,73.4,9.17
256,Nueva Loja,36,EC,1584760510,98,0.08,-76.88,71.15,3.31
257,Dabat,11,ET,1584760510,37,12.98,37.77,54.95,2.77
258,Kavaratti,20,IN,1584760240,74,10.57,72.64,84.2,6.93
259,Preobrazheniye,0,RU,1584760510,45,42.9,133.91,45.05,10.47
260,Patea,100,NZ,1584760510,76,-39.76,174.48,66.0,10.0
261,Tallahassee,40,US,1584760494,88,30.44,-84.28,71.01,4.7
262,Cidreira,0,BR,1584760510,76,-30.18,-50.21,72.23,5.82
263,Vigrestad,0,NO,1584760511,92,58.57,5.7,34.0,4.32
264,Saint Paul Harbor,1,US,1584760511,80,57.79,-152.41,39.2,6.6
265,Rivera,0,UY,1584760511,57,-30.91,-55.55,59.99,2.55
266,Tevaitoa,93,PF,1584760511,68,-16.78,-151.5,84.29,7.72
267,Verkhnevilyuysk,100,RU,1584760511,91,63.45,120.32,21.65,9.48
268,Mabaruma,17,GY,1584760511,98,8.2,-59.78,70.79,1.39
269,Sandwich,90,US,1584760511,59,41.65,-88.62,34.0,13.87
270,Pag,0,HR,1584760511,93,44.45,15.06,37.4,4.7
271,Narón,90,ES,1584760511,100,43.52,-8.15,55.0,2.17
272,Sisimiut,100,GL,1584760301,97,66.94,-53.67,2.21,4.83
273,Rathenow,40,DE,1584760511,80,52.61,12.34,41.0,9.17
274,Victor Harbor,100,AU,1584760512,56,-35.57,138.62,72.0,16.11
275,Teya,100,RU,1584760512,92,60.38,92.63,28.31,4.97
276,Nizhniy Baskunchak,0,RU,1584760512,65,48.22,46.83,37.13,7.27
277,Hofn,100,IS,1584760512,72,64.25,-15.21,44.69,34.56
278,Areosa,40,PT,1584760512,100,41.72,-8.86,55.99,4.7
279,Vao,39,NC,1584760512,73,-22.67,167.48,77.63,16.33
280,Sioux Lookout,20,CA,1584760513,42,50.1,-91.92,15.8,2.24
281,Bilma,100,NE,1584760513,13,18.69,12.92,76.73,7.83
282,Dunedin,100,NZ,1584760513,93,-45.87,170.5,52.0,1.99
283,Corinth,0,GR,1584760513,53,37.94,22.96,54.0,1.3
284,Wonthaggi,100,AU,1584760513,71,-38.6,145.59,66.0,1.01
285,Clyde River,1,CA,1584760247,75,70.47,-68.59,-13.0,10.29
286,Netanya,40,IL,1584760513,87,32.33,34.86,48.2,2.24
287,Dzerzhinsk,75,RU,1584760513,84,56.24,43.46,33.01,6.71
288,Nantucket,20,US,1584760222,87,41.28,-70.1,53.01,12.75
289,Domodossola,40,IT,1584760513,100,46.12,8.29,48.0,4.32
290,Evensk,49,RU,1584760513,74,61.95,159.23,4.55,4.94
291,Safi,0,MA,1584760229,83,32.3,-9.24,50.63,6.53
292,Leningradskiy,98,RU,1584760513,90,69.38,178.42,-2.65,4.83
293,Abonnema,100,NG,1584760513,82,4.71,6.79,79.97,6.44
294,Khirkiya,0,IN,1584760513,19,22.17,76.86,76.37,0.98
295,Balkhash,79,KZ,1584760513,75,46.84,74.98,33.17,11.74
296,Solnechnyy,100,RU,1584760513,68,50.72,136.63,27.05,6.06
297,Merrill,1,US,1584760513,62,45.18,-89.68,23.0,6.93
298,Elk Plain,1,US,1584760513,64,47.05,-122.4,57.2,1.16
299,Bagnols-sur-Cèze,15,FR,1584760353,93,44.16,4.62,46.99,1.77
300,Neverkino,30,RU,1584760513,90,52.79,46.74,30.29,8.46
301,Mitsamiouli,20,KM,1584760513,78,-11.38,43.28,80.6,11.41
302,Kaeo,100,NZ,1584760514,65,-35.1,173.78,73.0,3.0
303,La Santisima Trinidad,100,BO,1584760514,93,-14.83,-64.9,69.53,2.44
304,Independence,1,US,1584760476,50,39.09,-94.42,34.0,10.29
305,Badvel,0,IN,1584760514,48,14.75,79.05,83.39,5.79
306,Aklavik,90,CA,1584760514,92,68.22,-135.01,30.2,10.29
307,Jiuquan,25,CN,1584760514,22,39.74,98.52,43.97,4.76
308,Champasak,20,LA,1584760514,58,14.75,106.0,84.2,2.24
309,Garoowe,71,SO,1584760514,81,8.41,48.48,76.37,5.5
310,Visnes,0,NO,1584760514,92,59.36,5.22,34.0,4.7
311,Broome,90,US,1584760514,75,42.25,-75.83,46.0,13.87
312,Mount Isa,0,AU,1584760514,21,-20.73,139.5,93.2,13.87
313,Muhafazat Lahij,66,YE,1584760514,79,13.17,44.58,75.11,9.26
314,Tiarei,75,PF,1584760514,70,-17.53,-149.33,84.2,5.82
315,Hays,90,US,1584760514,76,30.05,-98.03,54.0,17.22
316,Quang Ngai,2,VN,1584760514,77,15.12,108.8,79.43,14.94
317,La Primavera,57,CO,1584760514,37,5.49,-70.41,88.61,9.53
318,Xaçmaz,100,AZ,1584760514,75,41.46,48.81,46.49,6.62
319,Kununurra,41,AU,1584760235,22,-15.77,128.73,96.8,13.87
320,San Quintín,100,MX,1584760515,71,30.48,-115.95,58.73,9.75
321,Safonovo,67,RU,1584760515,92,55.15,33.22,32.09,4.99
322,Dzhebariki-Khaya,72,RU,1584760516,86,62.22,135.8,13.01,4.32
323,Rehoboth,24,NA,1584760516,37,-23.32,17.08,68.45,8.79
324,Estelle,75,US,1584760516,88,29.85,-90.11,77.0,5.82
325,Tucumã,100,BR,1584760516,90,-0.18,-50.05,74.93,6.15
326,Bafilo,100,TG,1584760516,65,9.35,1.27,78.71,5.39
327,Mendeleyevsk,90,RU,1584760516,92,55.91,52.29,28.4,13.42
328,Hay River,75,CA,1584760516,89,60.82,-115.8,32.0,9.17
329,Morondava,42,MG,1584760516,85,-20.28,44.28,70.61,3.06
330,Lárdos,0,GR,1584760516,66,36.09,28.02,53.6,3.36
331,Laas,75,IT,1584760516,100,46.62,10.7,39.99,3.36
332,Acaponeta,0,MX,1584760399,69,22.5,-105.36,68.45,2.71
333,Rome,90,US,1584760431,80,43.21,-75.46,39.2,17.22
334,Urucará,99,BR,1584760516,92,-2.54,-57.76,73.85,0.58
335,Dandong,33,CN,1584760516,30,40.13,124.39,52.43,10.2
336,Alghero,70,IT,1584760516,93,40.56,8.32,46.4,1.12
337,Kargil,90,IN,1584760516,61,34.57,76.1,12.29,2.04
338,Plettenberg Bay,0,ZA,1584760516,78,-34.05,23.37,63.05,4.38
339,Sistranda,40,NO,1584760516,80,63.73,8.83,37.0,10.29
340,Puerto Carreño,92,CO,1584760516,40,6.19,-67.49,87.89,9.06
341,Tuatapere,100,NZ,1584760517,92,-46.13,167.68,51.01,5.01
342,Vila Velha,75,BR,1584760517,94,-20.33,-40.29,78.8,4.7
343,Al Bardīyah,0,LY,1584760348,55,31.76,25.09,56.93,5.44
344,Stornoway,0,GB,1584760517,80,58.21,-6.39,41.0,11.41
345,San Rafael del Sur,20,NI,1584760517,69,11.85,-86.44,80.6,11.41
346,Vrangel',0,RU,1584760517,75,42.73,133.08,36.77,16.2
347,Dryden,40,CA,1584760404,28,49.78,-92.75,15.8,5.82
348,Luanda,75,AO,1584760517,88,-8.84,13.23,77.0,3.36
349,Myitkyina,59,MM,1584760517,43,25.38,97.4,76.91,5.86
350,Saint-Raphaël,0,HT,1584760517,86,19.43,-72.2,65.75,5.12
351,Zhezkazgan,90,KZ,1584760517,92,47.8,67.71,30.2,6.71
352,Pangkalanbuun,99,ID,1584760517,78,-2.68,111.62,81.41,1.07
353,Puerto Ayacucho,30,VE,1584760517,71,5.66,-67.62,77.09,2.95
354,Brenes,75,ES,1584760517,93,37.55,-5.87,52.0,11.41
355,Roald,56,NO,1584760517,77,62.58,6.13,33.8,10.29
356,Tateyama,0,JP,1584760517,45,34.98,139.87,64.4,26.4
357,Lüderitz,0,NA,1584760517,77,-26.65,15.16,64.4,14.99
358,Kavieng,1,PG,1584760517,68,-2.57,150.8,84.65,5.86
359,Berlevåg,100,NO,1584760518,66,70.86,29.09,28.49,26.55
360,Hong Kong,40,HK,1584760252,88,22.29,114.16,78.01,11.41
361,Nizhnyaya Tavda,100,RU,1584760518,95,57.67,66.17,28.31,6.53
362,Langsa,1,ID,1584760518,48,4.47,97.97,90.59,2.53
363,Guatire,59,VE,1584760518,97,10.48,-66.54,65.21,3.4
364,Batavia,90,US,1584760518,75,41.85,-88.31,33.01,14.99
365,East London,0,ZA,1584760518,82,-33.02,27.91,64.4,9.17
366,Souillac,75,MU,1584760519,83,-20.52,57.52,73.99,3.36
367,Awjilah,0,LY,1584760383,39,29.11,21.29,52.97,10.51
368,Aksarka,0,RU,1584760519,85,66.56,67.8,-2.11,7.49
369,Mascote,100,BR,1584760519,99,-15.56,-39.3,72.77,2.59
370,Ellisras,0,ZA,1584760519,66,-23.66,27.74,65.21,7.94
371,Saint Anthony,1,US,1584760245,49,45.02,-93.22,28.4,5.82
372,Margate,20,GB,1584760240,80,51.38,1.39,45.0,13.87
373,Burlington,90,US,1584760519,49,39.88,-74.64,71.6,10.29
374,Najrān,0,SA,1584760519,60,17.49,44.13,71.6,4.7
375,Atambua,75,ID,1584760519,82,-9.11,124.89,79.61,2.98
376,Riviere-au-Renard,40,CA,1584760519,93,49.0,-64.4,39.2,5.82
377,Bogorodskoye,50,RU,1584760252,83,56.55,37.88,25.97,7.54
378,Funtua,100,NG,1584760519,13,11.52,7.31,73.85,5.79
379,Akdepe,90,TM,1584760519,75,42.06,59.38,44.6,11.41
380,Fort Nelson,75,CA,1584760226,26,58.81,-122.7,46.4,6.93
381,Reutov,75,RU,1584760519,80,55.76,37.86,33.8,4.47
382,Contamana,99,PE,1584760520,66,-7.33,-75.02,79.25,2.82
383,Vardø,20,NO,1584760520,78,70.37,31.11,15.8,13.87
384,Sarangani,98,PH,1584760520,68,5.4,125.46,83.57,9.6
385,Nemuro,20,JP,1584760520,34,43.32,145.57,48.2,9.17
386,Vestmanna,100,FO,1584760238,80,62.16,-7.17,41.0,20.8
387,Gemena,100,CD,1584760520,98,3.25,19.77,71.33,1.86
388,Kosa,100,RU,1584760520,92,59.94,55.0,15.35,6.33
389,Braço do Norte,20,BR,1584760520,94,-28.27,-49.17,63.23,2.51
390,Yeppoon,11,AU,1584760520,55,-23.13,150.73,86.0,8.05
391,Turukhansk,77,RU,1584760520,80,65.82,87.98,4.37,9.22
392,Klyuchi,100,RU,1584760520,85,52.27,79.17,27.41,10.56
393,São Filipe,3,CV,1584760520,79,14.9,-24.5,68.27,16.71
394,Gijang,0,KR,1584760520,36,35.24,129.21,64.4,13.87
395,Saint George,20,US,1584760520,75,37.1,-113.58,48.99,9.17
396,Nome,90,US,1584760520,98,64.5,-165.41,32.0,8.05
397,Rodrigues Alves,100,BR,1584760520,92,-7.74,-72.65,73.67,2.08
398,Hūn,100,LY,1584760520,33,29.13,15.95,63.23,20.85
399,Mandalgovi,0,MN,1584760520,31,45.76,106.27,35.51,14.97
400,Takaka,100,NZ,1584760520,92,-40.85,172.8,64.0,3.0
401,Cam Ranh,20,VN,1584760521,62,11.92,109.16,86.0,4.7
402,Coquimbo,90,CL,1584760521,82,-29.95,-71.34,60.8,4.7
403,Kargopol',0,RU,1584760521,92,61.51,38.95,14.99,5.14
404,Homer,1,US,1584760521,69,59.64,-151.55,39.2,9.17
405,Marystown,100,CA,1584760521,96,47.17,-55.15,40.37,48.34
406,Kushima,0,JP,1584760521,45,31.46,131.23,68.0,12.75
407,Izhevskoye,24,RU,1584760521,88,54.56,40.87,30.65,5.91
408,Cabedelo,20,BR,1584760222,88,-6.98,-34.83,78.8,2.37
409,Tocopilla,14,CL,1584760522,78,-22.09,-70.2,58.55,4.5
410,Banjar,20,ID,1584760522,84,-8.19,114.97,86.0,4.7
411,Plouzané,90,FR,1584760522,87,48.38,-4.62,48.2,18.34
412,Abu Dhabi,40,AE,1584760515,61,24.47,54.37,78.01,10.29
413,Morant Bay,20,JM,1584760523,74,17.88,-76.41,78.8,12.75
414,Alenquer,20,BR,1584760383,100,-1.94,-54.74,73.4,4.7
415,Gornopravdinsk,85,RU,1584760523,95,60.05,69.9,23.63,6.58
416,Clarence Town,100,AU,1584760523,54,-32.58,151.78,78.8,8.05
417,Yushu,0,CN,1584760523,51,44.8,126.53,42.17,11.3
418,Baijiantan,98,CN,1584760523,65,45.63,85.18,42.89,5.1
419,Māngrol,26,IN,1584760523,77,21.12,70.12,76.37,9.66
420,Karratha,100,AU,1584760523,73,-20.74,116.85,86.99,8.12
421,Oktyabr'skoye,100,RU,1584760523,94,43.06,44.74,36.23,0.65
422,Fairview,90,US,1584760523,43,40.81,-74.0,71.6,12.75
423,Spokane,1,US,1584760428,52,47.62,-117.37,53.6,3.36
424,Burgeo,100,CA,1584760523,99,47.62,-57.62,36.41,19.19
425,Lakes Entrance,100,AU,1584760523,52,-37.88,147.98,66.99,3.0
426,Lukovetskiy,20,RU,1584760524,91,64.3,41.92,1.4,2.24
427,Murdochville,99,CA,1584760238,89,48.96,-65.5,40.91,13.76
428,Lensk,98,RU,1584760524,90,60.73,114.93,22.01,10.85
429,Tazmalt,40,DZ,1584760524,87,36.39,4.4,59.0,4.7
430,Kichera,100,RU,1584760524,93,55.94,110.1,16.43,6.71
431,São Félix do Xingu,100,BR,1584760524,95,-6.64,-51.99,70.79,1.61
432,Mahon,100,ES,1584760524,87,39.89,4.27,57.2,9.17
433,Kologriv,97,RU,1584760524,85,58.83,44.32,19.49,9.6
434,Bathsheba,75,BB,1584760524,83,13.22,-59.52,77.0,19.46
435,Distrikt Brokopondo,25,SR,1584760524,91,4.75,-55.17,72.59,5.64
436,Henties Bay,34,NA,1584760464,94,-22.12,14.28,61.0,1.01
437,Poro,20,PH,1584760524,62,10.63,124.41,87.8,8.05
438,Águas Formosas,100,BR,1584760524,93,-17.08,-40.94,70.61,3.2
439,Kibala,68,TD,1584760524,44,9.11,18.35,78.8,2.28
440,Teahupoo,75,PF,1584760524,70,-17.83,-149.27,84.2,5.82
441,Forsytheganj,100,BY,1584760524,70,52.63,29.73,38.21,3.69
442,Maxixe,0,MZ,1584760524,64,-23.86,35.35,74.75,6.69
443,Matara,67,LK,1584760524,67,5.95,80.54,81.95,4.81
444,Sobolevo,63,RU,1584760524,88,54.43,31.9,31.91,5.21
445,Sørland,100,NO,1584760524,63,67.67,12.69,34.61,10.78
446,Coyhaique,90,CL,1584760524,82,-45.58,-72.07,57.2,5.82
447,Praia da Vitória,40,PT,1584760524,82,38.73,-27.07,59.0,20.56
448,Bacungan,20,PH,1584760524,59,9.91,118.7,89.6,11.41
449,Kutum,73,SD,1584760343,11,14.2,24.67,53.51,2.46
450,Kaitangata,100,NZ,1584760525,93,-46.28,169.85,51.01,1.99
451,Quila,40,MX,1584760525,64,24.42,-107.22,68.0,2.24
452,Ōdachō-ōda,0,JP,1584760525,48,35.18,132.5,62.6,24.16
453,Thunder Bay,5,CA,1584760525,66,48.4,-89.32,14.0,3.36
454,Bend,1,US,1584760368,34,44.06,-121.32,53.01,5.82
455,Bismarck,1,US,1584760269,62,46.81,-100.78,19.99,12.75
456,Canmore,1,CA,1584760525,58,51.08,-115.35,28.99,8.05
457,Province of Mantua,0,IT,1584760525,93,45.17,10.78,50.0,4.7
458,Havøysund,75,NO,1584760525,85,71.0,24.66,24.8,27.51
459,Coahuayana Viejo,5,MX,1584760525,69,18.73,-103.68,73.4,2.59
460,Matagami,20,CA,1584760525,84,49.75,-77.63,-2.2,20.8
461,Ébolowa,100,CM,1584760526,98,2.9,11.15,67.55,1.99
462,Ternate,100,ID,1584760526,67,0.8,127.4,85.73,5.3
463,Wanning,100,CN,1584760526,74,18.8,110.4,80.51,11.79
464,Enid,1,US,1584760297,80,36.4,-97.88,37.0,8.05
465,Lompoc,90,US,1584760526,82,34.64,-120.46,55.4,3.36
466,Lichinga,100,MZ,1584760227,96,-13.31,35.24,68.99,4.59
467,Necochea,0,AR,1584760526,93,-38.55,-58.74,54.0,3.0
468,Acapulco de Juárez,20,MX,1584760502,78,16.86,-99.89,80.6,3.36
469,Hibbing,1,US,1584760526,71,47.43,-92.94,12.2,1.52
470,Shalinskoye,100,RU,1584760526,60,55.72,93.76,34.61,18.1
471,Vostok,88,RU,1584760526,95,46.49,135.88,28.13,8.32
472,Mossamedes,19,AO,1584760527,77,-15.2,12.15,73.49,9.44
473,Tiznit Province,96,MA,1584760527,93,29.58,-9.5,49.01,14.0
474,Oneonta,100,US,1584760527,76,42.45,-75.06,44.01,1.99
475,Deputatsky,3,RU,1584760527,81,69.3,139.9,-4.45,2.8
476,Neiafu,75,TO,1584760527,74,-18.65,-173.98,84.2,6.93
477,Talcahuano,90,CL,1584760527,87,-36.72,-73.12,55.4,8.05
478,Hanmer Springs,71,NZ,1584760527,54,-42.52,172.82,63.77,2.26
479,Ambilobe,100,MG,1584760527,93,-13.2,49.05,72.77,5.37
480,Cap Malheureux,75,MU,1584760527,83,-19.98,57.61,73.99,3.36
481,Hasaki,67,JP,1584760527,36,35.73,140.83,68.0,13.87
482,Karaton,40,ID,1584760527,66,-6.34,106.1,86.0,9.17
483,Cayenne,92,GF,1584760269,83,4.93,-52.33,78.8,9.17
484,Mangit,100,UZ,1584760527,67,40.6,70.96,59.0,9.17
485,Ugoofaaru,100,MV,1584760527,74,5.67,73.0,83.03,9.08
486,Denpasar,20,ID,1584760242,84,-8.65,115.22,86.0,4.7
487,Caucayá,28,CO,1584760527,90,-0.19,-74.78,73.67,2.75
488,Gevrai,0,IN,1584760527,22,19.27,75.75,77.81,5.64
489,Ballina,7,AU,1584760527,65,-28.87,153.57,86.0,17.22
490,Bestöbe,100,KZ,1584760527,76,52.5,73.1,28.31,14.0
491,Manta,40,EC,1584760527,74,-0.95,-80.73,80.6,5.82
492,Quatre Cocos,75,MU,1584760528,83,-20.21,57.76,73.99,3.36
493,Sorong,100,ID,1584760528,62,-0.88,131.25,86.63,5.06
494,Thinadhoo,29,MV,1584760528,70,0.53,72.93,83.39,5.08
495,Shimokizukuri,75,JP,1584760528,86,40.81,140.39,42.01,4.7
496,Flagstaff,90,US,1584760366,75,35.2,-111.65,54.0,5.59
497,Mandan,1,US,1584760528,62,46.83,-100.89,19.99,12.75
498,Cukai,20,MY,1584760528,79,4.25,103.42,84.2,2.24
499,Cheyenne,90,US,1584760490,85,41.14,-104.82,23.0,11.41
500,Inhambane,0,MZ,1584760528,64,-23.86,35.38,74.75,6.69
501,Ippy,100,CF,1584760528,68,6.27,21.22,75.11,6.15
502,Port Blair,39,IN,1584760275,66,11.67,92.75,80.87,4.79
503,Maltahöhe,92,NA,1584760528,40,-24.83,16.98,68.99,2.17
504,Titlāgarh,0,IN,1584760528,45,20.3,83.15,80.69,2.48
505,Goderich,99,CA,1584760528,66,43.75,-81.72,33.01,3.0
506,Waipawa,95,NZ,1584760529,68,-41.41,175.52,64.4,20.8
507,Porto Empedocle,43,IT,1584760529,100,37.29,13.53,48.0,1.99
508,Lipin Bor,0,RU,1584760529,67,60.26,37.98,19.85,5.14
509,Tarnogskiy Gorodok,100,RU,1584760529,84,60.5,43.58,16.79,8.21
510,Manaus,90,BR,1584760166,83,-3.1,-60.02,78.8,4.7
511,Yuli,43,NG,1584760529,12,9.7,10.27,75.47,0.87
512,Lodja,100,CD,1584760529,99,-3.48,23.43,68.63,1.81
513,Barceloneta,75,PR,1584760529,94,18.45,-66.54,75.0,6.93
514,Straumen,35,NO,1584760530,92,63.87,11.3,37.99,2.24
515,Shelburne,90,CA,1584760530,73,44.08,-80.2,28.4,14.99
516,Rawson,22,AR,1584760530,52,-43.3,-65.1,68.63,15.5
517,Tondano,40,ID,1584760530,70,1.3,124.91,86.0,4.7
518,Kuusamo,2,FI,1584760238,91,65.97,29.18,3.2,8.05
519,Constantine,75,DZ,1584760530,87,36.37,6.61,50.0,3.27
520,Sittwe,62,MM,1584760530,54,20.15,92.9,77.63,4.03
521,Maragogi,91,BR,1584760248,77,-9.01,-35.22,82.49,13.85
522,Rio Pomba,92,BR,1584760530,99,-21.27,-43.18,73.99,2.91
523,Verkhnetulomskiy,96,RU,1584760530,84,68.61,31.8,-2.2,2.24
524,Joshīmath,48,IN,1584760530,31,30.57,79.57,44.15,3.74
525,Crixás,100,BR,1584760530,97,-14.55,-49.97,71.69,4.7
526,Vila Franca do Campo,75,PT,1584760530,67,37.72,-25.43,59.0,5.82
527,Bāfq,99,IR,1584760530,17,31.61,55.41,60.53,8.99
528,Toktogul,88,KG,1584760530,60,41.87,72.94,38.57,1.61
529,Baykit,100,RU,1584760530,91,61.67,96.37,23.81,1.92
530,Salaga,100,GH,1584760530,64,8.55,-0.52,83.93,7.45
531,Road Town,40,VG,1584760530,83,18.42,-64.62,75.2,13.87
532,Puerto Baquerizo Moreno,0,EC,1584760530,76,-0.9,-89.6,78.53,7.67
533,Kismayo,83,SO,1584760530,76,-0.36,42.55,82.85,13.91
534,Nizhnevartovsk,90,RU,1584760530,96,60.93,76.55,32.0,4.47
535,Namatanai,0,PG,1584760530,67,-3.67,152.43,84.83,5.77
536,Punta Alta,0,AR,1584760530,45,-38.88,-62.07,70.61,13.35
537,Praia,20,CV,1584760530,73,14.92,-23.51,69.8,14.99
538,Irtyshskiy,100,RU,1584760531,93,58.33,68.13,28.31,5.84
539,Robertsport,100,LR,1584760531,86,6.75,-11.37,80.87,10.94
540,Ixtapa,5,MX,1584760531,78,20.7,-105.2,77.0,4.7
541,Māndal,0,IN,1584760531,44,25.45,74.57,75.47,8.39
542,Port Lincoln,100,AU,1584760531,61,-34.73,135.87,65.57,5.82
543,Podyuga,23,RU,1584760531,92,61.09,40.86,14.09,5.66
544,Leh,28,IN,1584760531,68,34.17,77.58,10.67,3.31
545,Changji,88,CN,1584760531,59,44.02,87.32,41.0,2.24
546,Gazi,20,GR,1584760531,58,35.33,25.07,57.2,13.87
547,Panguna,96,PG,1584760531,91,-6.32,155.48,78.71,1.59
548,Ocampo,67,MX,1584760531,64,21.65,-101.5,62.33,11.9
549,Kem',0,RU,1584760531,89,64.96,34.58,10.13,7.65
550,Troitsko-Pechorsk,71,RU,1584760531,96,62.71,56.2,13.73,3.8
551,Southbridge,20,US,1584760531,62,42.08,-72.03,64.99,23.04
552,Jinchang,0,CN,1584760531,29,38.5,102.17,48.65,6.04
553,La Palma,75,US,1584760532,59,33.85,-118.05,60.8,6.62
554,Puerto Cabello,6,VE,1584760532,79,10.47,-68.01,76.37,10.98
555,Saint-Joseph,7,RE,1584760532,60,-21.37,55.62,71.6,8.05
556,Udachny,0,RU,1584760532,64,66.42,112.4,-2.2,2.24
557,Ostrovnoy,100,RU,1584760533,75,68.05,39.51,21.65,14.9
558,Conde,40,BR,1584760533,94,-7.26,-34.91,77.0,2.73
559,Along,3,IN,1584760533,55,28.17,94.77,67.19,3.89
560,Broken Hill,98,AU,1584760533,40,-31.95,141.43,73.4,6.93
561,Meylan,1,FR,1584760533,86,45.22,5.79,46.99,3.36
562,La Ronge,5,CA,1584760533,48,55.1,-105.28,19.4,5.82
563,Mazagão,75,BR,1584760533,100,-0.12,-51.29,77.0,6.93
564,Paamiut,32,GL,1584760533,58,61.99,-49.67,6.53,15.41
565,Muravlenko,86,RU,1584760533,88,63.79,74.52,0.41,11.39
566,Mayumba,98,GA,1584760533,69,-3.43,10.66,79.79,3.47
567,Clayton,75,US,1584760533,68,33.53,-84.37,69.8,11.41
568,Sri Aman,75,MY,1584760533,83,1.24,111.46,82.4,3.36
569,Tigzirt,100,DZ,1584760533,84,36.89,4.12,58.91,4.74
570,Chardara,100,KZ,1584760533,72,41.25,67.97,56.75,18.32
571,Iqaluit,90,CA,1584760533,65,63.75,-68.51,3.2,4.7
572,Paramonga,100,PE,1584760533,86,-10.67,-77.83,72.41,3.53
573,Sechura,2,PE,1584760533,90,-5.56,-80.82,74.21,2.66
574,Omboué,100,GA,1584760533,92,-1.57,9.26,72.41,4.0
575,Sept-Îles,90,CA,1584760534,100,50.2,-66.38,30.2,8.05
576,Christchurch,100,NZ,1584760338,77,-43.53,172.63,63.0,28.86
577,Garmsār,60,IR,1584760534,28,35.22,52.34,56.93,6.26
